{
    "centers": [
        {
            "center_id": 638780,
            "name": "Haribhau Vat Dawakhana",
            "district_name": "Amravati",
            "state_name": "Maharashtra",
            "location": "Chawadi Chowk Old Town Badnera",
            "pincode": "444701",
            "block_name": "Amravati Corporation",
            "lat": "20.86590000",
            "long": "77.74090000"
        },
        {
            "center_id": 614190,
            "name": "Dhotra PHC",
            "district_name": "Akola",
            "state_name": "Maharashtra",
            "location": "Dhotra",
            "pincode": "444107",
            "block_name": "Murtizapur",
            "lat": "20.89504000",
            "long": "77.73868000"
        },
        {
            "center_id": 724829,
            "name": "Hantodkar Children Hospital",
            "district_name": "Amravati",
            "state_name": "Maharashtra",
            "location": "Sai Nagar, Amravati",
            "pincode": "444607",
            "block_name": "Amravati Corporation",
            "lat": "20.89567630",
            "long": "77.74402870"
        },
        {
            "center_id": 686846,
            "name": "MIDC Association Office",
            "district_name": "Amravati",
            "state_name": "Maharashtra",
            "location": "Old Bypass Road Amravati",
            "pincode": "444601",
            "block_name": "Amravati Corporation",
            "lat": "20.88810000",
            "long": "77.76090000"
        },
        {
            "center_id": 684547,
            "name": "Saturna MIDC Covaxin",
            "district_name": "Amravati",
            "state_name": "Maharashtra",
            "location": "Saturna MIDC",
            "pincode": "444607",
            "block_name": "Amravati Corporation",
            "lat": "20.90470000",
            "long": "77.74660000"
        },
        {
            "center_id": 612200,
            "name": "34 UPHC Badnera",
            "district_name": "Amravati",
            "state_name": "Maharashtra",
            "location": "Shahari Arogya Kendra Modi Hospital Amravati",
            "pincode": "444701",
            "block_name": "Amravati Corporation",
            "lat": "20.85537000",
            "long": "77.72712000"
        },
        {
            "center_id": 702534,
            "name": "UPHC Badnera Covaxin",
            "district_name": "Amravati",
            "state_name": "Maharashtra",
            "location": "Modi Hospital Badnera",
            "pincode": "444701",
            "block_name": "Amravati Corporation",
            "lat": "20.85537000",
            "long": "77.72712000"
        },
        {
            "center_id": 612154,
            "name": "UPHC Isolation",
            "district_name": "Amravati",
            "state_name": "Maharashtra",
            "location": "Lal Dawakhana Near Dasra Maidan",
            "pincode": "444601",
            "block_name": "Amravati Corporation",
            "lat": "20.91300000",
            "long": "77.75202000"
        },
        {
            "center_id": 658130,
            "name": "Nursing College DH Amravati",
            "district_name": "Amravati",
            "state_name": "Maharashtra",
            "location": "Irvin Chowk Amravati",
            "pincode": "444601",
            "block_name": "Amravati Corporation",
            "lat": "20.91300000",
            "long": "77.75202000"
        },
        {
            "center_id": 684584,
            "name": "Isolation Covaxin",
            "district_name": "Amravati",
            "state_name": "Maharashtra",
            "location": "Lal Dawakhana Near Dasra Maidan",
            "pincode": "444601",
            "block_name": "Amravati Corporation",
            "lat": "20.91300000",
            "long": "77.75202000"
        },
        {
            "center_id": 692887,
            "name": "Isolation New 18- 44 Yrs Only",
            "district_name": "Amravati",
            "state_name": "Maharashtra",
            "location": "Lal Dawakhana Near Dasra Maidan",
            "pincode": "444601",
            "block_name": "Amravati Corporation",
            "lat": "20.91300000",
            "long": "77.75202000"
        },
        {
            "center_id": 605029,
            "name": "18 Sujan Surgical Hospital",
            "district_name": "Amravati",
            "state_name": "Maharashtra",
            "location": "Rukhmini Nagar Amravati",
            "pincode": "444605",
            "block_name": "Amravati Corporation",
            "lat": "20.91312000",
            "long": "77.75615900"
        },
        {
            "center_id": 612172,
            "name": "33 UPHC Dastur Nagar",
            "district_name": "Amravati",
            "state_name": "Maharashtra",
            "location": "Shahari Aarogya Kendra Dastur Nagar Chouk Amt",
            "pincode": "444606",
            "block_name": "Amravati Corporation",
            "lat": "20.90796000",
            "long": "77.76738000"
        },
        {
            "center_id": 684637,
            "name": "UPHC Dastur Nagar Covaxin",
            "district_name": "Amravati",
            "state_name": "Maharashtra",
            "location": "Shahari Aarogya Kendra Dastur Nagar Chouk Amt",
            "pincode": "444606",
            "block_name": "Amravati Corporation",
            "lat": "20.90796000",
            "long": "77.76738000"
        },
        {
            "center_id": 655911,
            "name": "119 Hedgewar Hospital AMT",
            "district_name": "Amravati",
            "state_name": "Maharashtra",
            "location": "Amravati",
            "pincode": "444606",
            "block_name": "Amravati Corporation",
            "lat": "20.91751260",
            "long": "77.75698080"
        },
        {
            "center_id": 605474,
            "name": "21 MATRUCHHAYA HOSPITAL",
            "district_name": "Amravati",
            "state_name": "Maharashtra",
            "location": "AMRAVATI MAHARASHTRA DANDE PLOT , NEAR NANADA MARKET RAJAPETH AMTAVATI",
            "pincode": "444606",
            "block_name": "Amravati Corporation",
            "lat": "20.92019200",
            "long": "77.75578490"
        },
        {
            "center_id": 571756,
            "name": "Takhatmal Homeopathy College",
            "district_name": "Amravati",
            "state_name": "Maharashtra",
            "location": "Takhatmalshriwallabh Homeopathy College Rajapeth Nanda Market Amravati",
            "pincode": "444604",
            "block_name": "Amravati Corporation",
            "lat": "20.91970000",
            "long": "77.75770000"
        },
        {
            "center_id": 684620,
            "name": "Takhatmal Homeo Clg Covaxin",
            "district_name": "Amravati",
            "state_name": "Maharashtra",
            "location": "Takhatmalshriwallabh Homeopathy College Rajapeth Nanda Market Amravati",
            "pincode": "444604",
            "block_name": "Amravati Corporation",
            "lat": "20.91970000",
            "long": "77.75770000"
        },
        {
            "center_id": 605471,
            "name": "20 HI TECH MULTISPECIALTY HOSP",
            "district_name": "Amravati",
            "state_name": "Maharashtra",
            "location": "46B Rajapeth",
            "pincode": "444606",
            "block_name": "Amravati Corporation",
            "lat": "20.92004300",
            "long": "77.75878000"
        },
        {
            "center_id": 695702,
            "name": "Sabnis Plot Amc Hosp",
            "district_name": "Amravati",
            "state_name": "Maharashtra",
            "location": "Manapa Dawakhana Sabnis Plot Amravati",
            "pincode": "444606",
            "block_name": "Amravati Corporation",
            "lat": "20.91950000",
            "long": "77.76100000"
        },
        {
            "center_id": 699016,
            "name": "Sabnis Plot",
            "district_name": "Amravati",
            "state_name": "Maharashtra",
            "location": "Manapa Dawakhana Sabnis Plot Amravati",
            "pincode": "444606",
            "block_name": "Amravati Corporation",
            "lat": "20.91950000",
            "long": "77.76100000"
        },
        {
            "center_id": 605465,
            "name": "19 Best Multispecility Hosptl",
            "district_name": "Amravati",
            "state_name": "Maharashtra",
            "location": "Kalyan Nagar Square Rukmini Nagar Road, Amravati",
            "pincode": "444606",
            "block_name": "Amravati Corporation",
            "lat": "20.92064900",
            "long": "77.76279700"
        },
        {
            "center_id": 645143,
            "name": "Chinchfail PDMC Covisheild",
            "district_name": "Amravati",
            "state_name": "Maharashtra",
            "location": "Chinchfail Hamalpura Amravati",
            "pincode": "444601",
            "block_name": "Amravati Corporation",
            "lat": "20.92490000",
            "long": "77.75750000"
        },
        {
            "center_id": 724786,
            "name": "Sai Multispecialty Hospital",
            "district_name": "Amravati",
            "state_name": "Maharashtra",
            "location": "Amravati Rukhmani Nagar",
            "pincode": "444606",
            "block_name": "Amravati Corporation",
            "lat": "20.92626440",
            "long": "77.76363370"
        },
        {
            "center_id": 612006,
            "name": "30 UPHC Bhaji Bazaar",
            "district_name": "Amravati",
            "state_name": "Maharashtra",
            "location": "Bhaji Bazar Nr Corporation Hosp",
            "pincode": "444601",
            "block_name": "Amravati Corporation",
            "lat": "20.93262000",
            "long": "77.74402000"
        },
        {
            "center_id": 684522,
            "name": "UPHC Bhaji Bazaar Covaxin",
            "district_name": "Amravati",
            "state_name": "Maharashtra",
            "location": "Bhaji Bazar Nr Corporation Hosp",
            "pincode": "444601",
            "block_name": "Amravati Corporation",
            "lat": "20.93262000",
            "long": "77.74402000"
        },
        {
            "center_id": 565412,
            "name": "11 Nursing College DH Amravati",
            "district_name": "Amravati",
            "state_name": "Maharashtra",
            "location": "Irwin Chauk Amravati",
            "pincode": "444601",
            "block_name": "Amravati",
            "lat": "20.93200000",
            "long": "77.75230000"
        },
        {
            "center_id": 656096,
            "name": "121 Parshree Hospital",
            "district_name": "Amravati",
            "state_name": "Maharashtra",
            "location": "Amravati",
            "pincode": "444606",
            "block_name": "Amravati Corporation",
            "lat": "20.93008150",
            "long": "77.76203950"
        },
        {
            "center_id": 605478,
            "name": "22 Sankalp Chaudhari Maternity",
            "district_name": "Amravati",
            "state_name": "Maharashtra",
            "location": "Amravati Amravati",
            "pincode": "444606",
            "block_name": "Amravati Corporation",
            "lat": "20.93135800",
            "long": "77.76206900"
        },
        {
            "center_id": 224634,
            "name": "Arogyam 28",
            "district_name": "Amravati",
            "state_name": "Maharashtra",
            "location": "Amravati",
            "pincode": "444606",
            "block_name": "Amravati Corporation",
            "lat": "20.93363000",
            "long": "77.75705000"
        },
        {
            "center_id": 616871,
            "name": "70 HTC Nursing Dh Amravati",
            "district_name": "Amravati",
            "state_name": "Maharashtra",
            "location": "Amravati Near Irvin Squar",
            "pincode": "444601",
            "block_name": "Amravati",
            "lat": "20.93290000",
            "long": "77.76204000"
        },
        {
            "center_id": 612130,
            "name": "Nagpuri Get Schl No 12 Covaxin",
            "district_name": "Amravati",
            "state_name": "Maharashtra",
            "location": "Near Nagpuri Gate Police Station",
            "pincode": "444601",
            "block_name": "Amravati Corporation",
            "lat": "20.93686000",
            "long": "77.74315000"
        },
        {
            "center_id": 644824,
            "name": "Nagpuri Get Schl 12 Covishield",
            "district_name": "Amravati",
            "state_name": "Maharashtra",
            "location": "Near Nagpuri Gate Police Station",
            "pincode": "444601",
            "block_name": "Amravati Corporation",
            "lat": "20.93686000",
            "long": "77.74315000"
        },
        {
            "center_id": 724661,
            "name": "Zenith Hospital Care Center",
            "district_name": "Amravati",
            "state_name": "Maharashtra",
            "location": "Amravati",
            "pincode": "444601",
            "block_name": "Amravati Corporation",
            "lat": "20.93489330",
            "long": "77.75671600"
        },
        {
            "center_id": 612520,
            "name": "35 NCD DH Amravati",
            "district_name": "Amravati",
            "state_name": "Maharashtra",
            "location": "Gajanan Maharaj Temapal Khabarde Bagicha Amravati",
            "pincode": "444602",
            "block_name": "Amravati",
            "lat": "20.93411000",
            "long": "77.76076000"
        },
        {
            "center_id": 629887,
            "name": "Masanganj Dawakhana Covaxin",
            "district_name": "Amravati",
            "state_name": "Maharashtra",
            "location": "Kadvi Bazaar Masanganj Amravati",
            "pincode": "444601",
            "block_name": "Amravati Corporation",
            "lat": "20.93800000",
            "long": "77.74880000"
        },
        {
            "center_id": 644803,
            "name": "Masanganj Dawakhana Covisheild",
            "district_name": "Amravati",
            "state_name": "Maharashtra",
            "location": "Kadvi Bazaar Masanganj Amravati",
            "pincode": "444601",
            "block_name": "Amravati Corporation",
            "lat": "20.93800000",
            "long": "77.74880000"
        },
        {
            "center_id": 617784,
            "name": "72 VASANT HALL",
            "district_name": "Amravati",
            "state_name": "Maharashtra",
            "location": "Near Bus Stand,Morshi Road, Amravati",
            "pincode": "444606",
            "block_name": "Amravati Corporation",
            "lat": "20.93110000",
            "long": "77.77520000"
        },
        {
            "center_id": 737001,
            "name": "Amravati DHOCS",
            "district_name": "Amravati",
            "state_name": "Maharashtra",
            "location": "Amravati",
            "pincode": "444602",
            "block_name": "Amravati",
            "lat": "20.93414320",
            "long": "77.77252720"
        },
        {
            "center_id": 695717,
            "name": "UHP Vilas Nagar",
            "district_name": "Amravati",
            "state_name": "Maharashtra",
            "location": "Vilas Nagar Behind Vikas Vidyalay Amravati",
            "pincode": "444604",
            "block_name": "Amravati Corporation",
            "lat": "20.94280000",
            "long": "77.75410000"
        },
        {
            "center_id": 699008,
            "name": "UHP Vilas Ngr",
            "district_name": "Amravati",
            "state_name": "Maharashtra",
            "location": "Vilas Nagar Behind Vikas Vidyalay Amravati",
            "pincode": "444604",
            "block_name": "Amravati Corporation",
            "lat": "20.94280000",
            "long": "77.75410000"
        },
        {
            "center_id": 734484,
            "name": "Ishadaya",
            "district_name": "Amravati",
            "state_name": "Maharashtra",
            "location": "Near Irwin Chowk, Amravati",
            "pincode": "444601",
            "block_name": "Amravati Corporation",
            "lat": "20.93210000",
            "long": "77.78420000"
        },
        {
            "center_id": 224787,
            "name": "141 Ful Aamla Loni Takli",
            "district_name": "Amravati",
            "state_name": "Maharashtra",
            "location": "Fulamla",
            "pincode": "444701",
            "block_name": "Nandgaon Khandeshwar",
            "lat": "20.93694370",
            "long": "77.77676890"
        },
        {
            "center_id": 224793,
            "name": "92 Loni Takli PHC 45 -",
            "district_name": "Amravati",
            "state_name": "Maharashtra",
            "location": "Loni Takli",
            "pincode": "444708",
            "block_name": "Nandgaon Khandeshwar",
            "lat": "20.93694370",
            "long": "77.77676890"
        },
        {
            "center_id": 655997,
            "name": "121 Sunshine Hospital Amt",
            "district_name": "Amravati",
            "state_name": "Maharashtra",
            "location": "Amravati",
            "pincode": "444606",
            "block_name": "Amravati Corporation",
            "lat": "20.94734120",
            "long": "77.74054800"
        },
        {
            "center_id": 562549,
            "name": "11 Nursing COVISHIELD DH Amt",
            "district_name": "Amravati",
            "state_name": "Maharashtra",
            "location": "Irwin Chauk Amravati",
            "pincode": "444601",
            "block_name": "Amravati",
            "lat": "20.93742400",
            "long": "77.77954900"
        },
        {
            "center_id": 695711,
            "name": "Bichutekdi Amc Hosp",
            "district_name": "Amravati",
            "state_name": "Maharashtra",
            "location": "Manapa Dawakhana Bicchutekadi Amravati",
            "pincode": "444602",
            "block_name": "Amravati Corporation",
            "lat": "20.93170000",
            "long": "77.78790000"
        },
        {
            "center_id": 699019,
            "name": "Amc Hosp Bichutekdi 45 Above",
            "district_name": "Amravati",
            "state_name": "Maharashtra",
            "location": "Manapa Dawakhana Bicchutekadi Amravati",
            "pincode": "444602",
            "block_name": "Amravati Corporation",
            "lat": "20.93170000",
            "long": "77.78790000"
        },
        {
            "center_id": 730221,
            "name": "Central Jail Amravati",
            "district_name": "Amravati",
            "state_name": "Maharashtra",
            "location": "Jail Road Amravati",
            "pincode": "444602",
            "block_name": "Amravati Corporation",
            "lat": "20.93170000",
            "long": "77.78790000"
        },
        {
            "center_id": 565759,
            "name": "PDMMC Flw",
            "district_name": "Amravati",
            "state_name": "Maharashtra",
            "location": "PANCHAVATI CHOWK",
            "pincode": "444603",
            "block_name": "Amravati",
            "lat": "20.94435800",
            "long": "77.77286600"
        },
        {
            "center_id": 566714,
            "name": "PDMMC AMC",
            "district_name": "Amravati",
            "state_name": "Maharashtra",
            "location": "Panchwati Chowk",
            "pincode": "444602",
            "block_name": "Amravati Corporation",
            "lat": "20.94435800",
            "long": "77.77286600"
        },
        {
            "center_id": 604809,
            "name": "PDMMC Medical Clg",
            "district_name": "Amravati",
            "state_name": "Maharashtra",
            "location": "Shivaji Nager Shivaji Nager",
            "pincode": "444601",
            "block_name": "Amravati Corporation",
            "lat": "20.94435800",
            "long": "77.77286600"
        },
        {
            "center_id": 604846,
            "name": "15 PDMC Nursing Private",
            "district_name": "Amravati",
            "state_name": "Maharashtra",
            "location": "Shivaji Nager Shivaji Nager",
            "pincode": "444601",
            "block_name": "Amravati Corporation",
            "lat": "20.94435800",
            "long": "77.77286600"
        },
        {
            "center_id": 684616,
            "name": "PDMMC AMC Nursing",
            "district_name": "Amravati",
            "state_name": "Maharashtra",
            "location": "Panchwati Chowk",
            "pincode": "444602",
            "block_name": "Amravati Corporation",
            "lat": "20.94435800",
            "long": "77.77286600"
        },
        {
            "center_id": 692872,
            "name": "PDMMC NEW ONLY",
            "district_name": "Amravati",
            "state_name": "Maharashtra",
            "location": "Panchwati Chowk, Amravati",
            "pincode": "444602",
            "block_name": "Amravati Corporation",
            "lat": "20.94435800",
            "long": "77.77286600"
        },
        {
            "center_id": 769142,
            "name": "ECHS Polyclinic Amc",
            "district_name": "Amravati",
            "state_name": "Maharashtra",
            "location": "Sainik Guest House Morshi Road Amravati",
            "pincode": "444602",
            "block_name": "Amravati Corporation",
            "lat": "20.94510000",
            "long": "77.77120000"
        },
        {
            "center_id": 34732,
            "name": "13 Dental Hospital AMC",
            "district_name": "Amravati",
            "state_name": "Maharashtra",
            "location": "Wadali Amravati 444602",
            "pincode": "444602",
            "block_name": "Amravati Corporation",
            "lat": "20.93320000",
            "long": "77.79230000"
        },
        {
            "center_id": 628352,
            "name": "Dental College Covaxin Amt",
            "district_name": "Amravati",
            "state_name": "Maharashtra",
            "location": "Dental College Near Wadali Amravati",
            "pincode": "444602",
            "block_name": "Amravati Corporation",
            "lat": "20.93320000",
            "long": "77.79230000"
        },
        {
            "center_id": 704073,
            "name": "SRPF 1",
            "district_name": "Amravati",
            "state_name": "Maharashtra",
            "location": "SRPF Camp Near Wadali Amravati",
            "pincode": "444602",
            "block_name": "Amravati Corporation",
            "lat": "20.92870000",
            "long": "77.80200000"
        },
        {
            "center_id": 704077,
            "name": "SRPF 2",
            "district_name": "Amravati",
            "state_name": "Maharashtra",
            "location": "SRPF Camp Near Wadali Amravati",
            "pincode": "444602",
            "block_name": "Amravati Corporation",
            "lat": "20.92870000",
            "long": "77.80200000"
        },
        {
            "center_id": 611959,
            "name": "29 UPHC Mahendra Colony",
            "district_name": "Amravati",
            "state_name": "Maharashtra",
            "location": "AMC School No 18 Amar Nagar",
            "pincode": "444604",
            "block_name": "Amravati Corporation",
            "lat": "20.96000000",
            "long": "77.74000000"
        },
        {
            "center_id": 684571,
            "name": "UPHC Mahendra Colony Covaxin",
            "district_name": "Amravati",
            "state_name": "Maharashtra",
            "location": "AMC School No 18 Amar Nagar",
            "pincode": "444604",
            "block_name": "Amravati Corporation",
            "lat": "20.96000000",
            "long": "77.74000000"
        },
        {
            "center_id": 599351,
            "name": "Yesha Hospital",
            "district_name": "Navsari",
            "state_name": "Gujarat",
            "location": "Near Railway Station",
            "pincode": "396445",
            "block_name": "Navsari",
            "lat": "20.96314000",
            "long": "77.73737000"
        },
        {
            "center_id": 31546,
            "name": "Morgaon Sub Center.",
            "district_name": "Akola",
            "state_name": "Maharashtra",
            "location": "Morgaon Sub Center",
            "pincode": "444502",
            "block_name": "Balapur",
            "lat": "20.80315000",
            "long": "77.69761010"
        }
    ],
    "ttl": 24
}